[{"id":1,"name":"Skajo","revenue":42406733,"headquarter":{"lat":31.47454,"lot":35.10742},"location":[{"city":"Pakapasan Girang","employee":99,"state":null}]},
{"id":2,"name":"Jetpulse","revenue":33304578,"headquarter":{"lat":21.5711978,"lot":107.1484521},"location":[{"city":"Cawalo","employee":29,"state":null},{"city":"Guarda Nova","employee":50,"state":"Leiria"},{"city":"Nicola Town","employee":4,"state":null},{"city":"Curridabat","employee":39,"state":null},{"city":"Siguqiao","employee":100,"state":null}]},
{"id":3,"name":"Skipfire","revenue":9422661,"headquarter":{"lat":4.6147368,"lot":21.8866683},"location":[{"city":"Colinas","employee":71,"state":null},{"city":"Klagen","employee":29,"state":null},{"city":"Saint-Chamond","employee":9,"state":"Rhône-Alpes"},{"city":"Heshe","employee":29,"state":null}]},
{"id":4,"name":"Twiyo","revenue":30370587,"headquarter":{"lat":9.7846,"lot":124.1745},"location":[{"city":"Masuda","employee":53,"state":null},{"city":"Karkkila","employee":57,"state":null},{"city":"Tambakrejo","employee":70,"state":null},{"city":"Wuquan","employee":95,"state":null},{"city":"Staryy Krym","employee":25,"state":null}]},
{"id":5,"name":"Edgeify","revenue":50585348,"headquarter":{"lat":14.8921247,"lot":-87.1711922},"location":[]},
{"id":6,"name":"Kazu","revenue":41603735,"headquarter":{"lat":32.679852,"lot":-16.8502879},"location":[]},
{"id":7,"name":"Yakitri","revenue":44209387,"headquarter":{"lat":43.4945737,"lot":5.8978018},"location":[{"city":"Bīrganj","employee":96,"state":null},{"city":"Khadzhalmakhi","employee":6,"state":null},{"city":"Huancaray","employee":17,"state":null}]},
{"id":8,"name":"Mydo","revenue":4690764,"headquarter":{"lat":35.86278,"lot":14.5075},"location":[{"city":"Czarna Dąbrówka","employee":30,"state":null},{"city":"Longquan","employee":78,"state":null},{"city":"Sorong","employee":51,"state":null},{"city":"Kabul","employee":23,"state":null}]},
{"id":9,"name":"Eadel","revenue":28065563,"headquarter":{"lat":11.425041,"lot":123.1090142},"location":[{"city":"Shāhpur","employee":56,"state":null},{"city":"Balzers","employee":27,"state":null},{"city":"Basoko","employee":47,"state":null},{"city":"Sanjwāl","employee":96,"state":null},{"city":"Karkkila","employee":36,"state":null}]},
{"id":10,"name":"Shuffledrive","revenue":90892366,"headquarter":{"lat":39.2077209,"lot":46.4067952},"location":[{"city":"Gazimurskiy Zavod","employee":25,"state":null},{"city":"‘Ūrīf","employee":92,"state":null},{"city":"Tarbes","employee":85,"state":"Midi-Pyrénées"}]},
{"id":11,"name":"Tagcat","revenue":76623580,"headquarter":{"lat":-6.1756543,"lot":35.7926792},"location":[{"city":"Villiers","employee":85,"state":null},{"city":"Heicheng","employee":24,"state":null},{"city":"Áno Liósia","employee":94,"state":null},{"city":"Petrovskaya","employee":76,"state":null}]},
{"id":12,"name":"Linktype","revenue":9659710,"headquarter":{"lat":1.48833,"lot":124.97444},"location":[{"city":"Richmond","employee":87,"state":null}]},
{"id":13,"name":"Jabbersphere","revenue":98715039,"headquarter":{"lat":15.38666,"lot":104.558766},"location":[{"city":"Talghar","employee":59,"state":null}]},
{"id":14,"name":"Zazio","revenue":45755850,"headquarter":{"lat":41.9253854,"lot":43.4907611},"location":[{"city":"Choujiang","employee":81,"state":null},{"city":"Santa Cruz","employee":11,"state":null}]},
{"id":15,"name":"Realcube","revenue":7900732,"headquarter":{"lat":31.121239,"lot":121.370354},"location":[]},
{"id":16,"name":"Edgeblab","revenue":61774695,"headquarter":{"lat":41.3910706,"lot":23.200121},"location":[{"city":"Tulyushka","employee":4,"state":null}]},
{"id":17,"name":"Youfeed","revenue":42091946,"headquarter":{"lat":-7.35,"lot":-79.033333},"location":[{"city":"Xiliu","employee":70,"state":null}]},
{"id":18,"name":"Skajo","revenue":50170113,"headquarter":{"lat":-10.7333933,"lot":123.1260578},"location":[{"city":"Golema Rečica","employee":21,"state":null},{"city":"Maracha","employee":26,"state":null}]},
{"id":19,"name":"Katz","revenue":61999734,"headquarter":{"lat":42.3569364,"lot":24.1115593},"location":[{"city":"El Mirador","employee":84,"state":"Distrito Federal"}]},
{"id":20,"name":"Realbuzz","revenue":89254768,"headquarter":{"lat":48.8693156,"lot":2.3501981},"location":[{"city":"Karano","employee":15,"state":null},{"city":"Tours","employee":68,"state":"Centre"},{"city":"Chixi","employee":56,"state":null},{"city":"Valdivia","employee":32,"state":null},{"city":"Melaka","employee":7,"state":"Melaka"}]},
{"id":21,"name":"Meedoo","revenue":84421812,"headquarter":{"lat":-22.4183841,"lot":-44.3482701},"location":[]},
{"id":22,"name":"Plambee","revenue":38437750,"headquarter":{"lat":53.1183502,"lot":48.8618445},"location":[{"city":"Kebon","employee":66,"state":null},{"city":"Sobo","employee":76,"state":null},{"city":"Haoraoshan","employee":49,"state":null},{"city":"Bergen","employee":10,"state":"Hordaland"}]},
{"id":23,"name":"Devshare","revenue":89212378,"headquarter":{"lat":57.2490334,"lot":16.4322461},"location":[{"city":"Ryūō","employee":96,"state":null},{"city":"Caoxi","employee":97,"state":null}]},
{"id":24,"name":"Kwinu","revenue":16653646,"headquarter":{"lat":39.0745039,"lot":-84.33211},"location":[{"city":"Wanlongshan","employee":50,"state":null},{"city":"Dingqiao","employee":57,"state":null}]},
{"id":25,"name":"Brainbox","revenue":13139052,"headquarter":{"lat":-26.6161631,"lot":-56.2510215},"location":[{"city":"Haridimun","employee":87,"state":null},{"city":"Chambellan","employee":3,"state":null}]},
{"id":26,"name":"Bubblebox","revenue":9004113,"headquarter":{"lat":14.22584,"lot":-86.7139704},"location":[{"city":"Laixi","employee":98,"state":null},{"city":"Nyahururu","employee":79,"state":null}]},
{"id":27,"name":"Twitterbridge","revenue":17235421,"headquarter":{"lat":29.895386,"lot":106.570188},"location":[{"city":"Trzebnica","employee":28,"state":null},{"city":"Armação de Búzios","employee":71,"state":null}]},
{"id":28,"name":"Meevee","revenue":51933304,"headquarter":{"lat":-10.7281603,"lot":-40.3496894},"location":[{"city":"Laramate","employee":37,"state":null},{"city":"Maochen","employee":54,"state":null},{"city":"Skärhamn","employee":97,"state":"Västra Götaland"},{"city":"Sedayu","employee":98,"state":null}]},
{"id":29,"name":"Shufflester","revenue":20197514,"headquarter":{"lat":-11.3801768,"lot":-40.0068953},"location":[{"city":"Miami","employee":23,"state":"Florida"},{"city":"Ketawang","employee":10,"state":null},{"city":"Toledo","employee":28,"state":null}]},
{"id":30,"name":"Miboo","revenue":6080392,"headquarter":{"lat":-39.7466346,"lot":174.5134204},"location":[{"city":"Zhovti Vody","employee":61,"state":null},{"city":"Langxi","employee":68,"state":null},{"city":"Nowy Staw","employee":94,"state":null}]},
{"id":31,"name":"Agimba","revenue":65260660,"headquarter":{"lat":-17.8938032,"lot":-39.6930912},"location":[{"city":"Bibai","employee":55,"state":null},{"city":"Río Hondo","employee":21,"state":null},{"city":"Bangbayang","employee":28,"state":null}]},
{"id":32,"name":"Pixoboo","revenue":84328450,"headquarter":{"lat":-8.3083083,"lot":112.7211714},"location":[{"city":"San Francisco","employee":73,"state":null},{"city":"Tanjungampalu","employee":42,"state":null},{"city":"Fada N'gourma","employee":12,"state":null}]},
{"id":33,"name":"Browsecat","revenue":48028741,"headquarter":{"lat":9.3257165,"lot":-73.8654295},"location":[]},
{"id":34,"name":"Skinder","revenue":54095544,"headquarter":{"lat":46.71327,"lot":96.52588},"location":[{"city":"Shibata","employee":79,"state":null},{"city":"Racławice","employee":67,"state":null},{"city":"Obiliq","employee":67,"state":null},{"city":"Khulo","employee":43,"state":null}]},
{"id":35,"name":"Gigashots","revenue":38916652,"headquarter":{"lat":59.312956,"lot":18.068285},"location":[]},
{"id":36,"name":"Geba","revenue":70865816,"headquarter":{"lat":36.889084,"lot":120.51769},"location":[{"city":"Xique Xique","employee":38,"state":null},{"city":"Akhaltsikhe","employee":99,"state":null},{"city":"Yablonovskiy","employee":48,"state":null},{"city":"Sambongmulyo","employee":17,"state":null}]},
{"id":37,"name":"Podcat","revenue":74834729,"headquarter":{"lat":1.8786869,"lot":9.9716585},"location":[{"city":"Ust’ye","employee":59,"state":null}]},
{"id":38,"name":"Edgepulse","revenue":43171502,"headquarter":{"lat":6.6814285,"lot":80.399764},"location":[{"city":"Kista","employee":32,"state":"Stockholm"},{"city":"Bereeda","employee":31,"state":null},{"city":"Kunda","employee":32,"state":null}]},
{"id":39,"name":"Thoughtworks","revenue":50009458,"headquarter":{"lat":41.9310884,"lot":19.2147632},"location":[]},
{"id":40,"name":"Edgeclub","revenue":6220701,"headquarter":{"lat":53.6179245,"lot":109.6396262},"location":[{"city":"Hulutao","employee":48,"state":null},{"city":"Bagacay","employee":5,"state":null},{"city":"Kerrouchen","employee":4,"state":null},{"city":"Komyshnya","employee":93,"state":null},{"city":"El Suyatal","employee":4,"state":null}]},
{"id":41,"name":"Skivee","revenue":39804202,"headquarter":{"lat":32.339402,"lot":35.396266},"location":[{"city":"Taozhou","employee":9,"state":null},{"city":"Puerto Madryn","employee":5,"state":null},{"city":"Vary","employee":1,"state":null},{"city":"Antananarivo","employee":17,"state":null}]},
{"id":42,"name":"Avamm","revenue":24578884,"headquarter":{"lat":-42.814251,"lot":-65.0425829},"location":[{"city":"Dvin","employee":46,"state":null},{"city":"Giesteira","employee":34,"state":"Santarém"}]},
{"id":43,"name":"Rhyloo","revenue":9896539,"headquarter":{"lat":45.813177,"lot":9.2292909},"location":[{"city":"Ban Houayxay","employee":78,"state":null}]},
{"id":44,"name":"Ooba","revenue":79610659,"headquarter":{"lat":14.3770919,"lot":-87.1242072},"location":[]},
{"id":45,"name":"Ailane","revenue":66981997,"headquarter":{"lat":41.6764745,"lot":42.7085996},"location":[{"city":"Bamusso","employee":99,"state":null},{"city":"Arari","employee":35,"state":null}]},
{"id":46,"name":"InnoZ","revenue":16846735,"headquarter":{"lat":36.307064,"lot":120.39631},"location":[{"city":"Tobruk","employee":2,"state":null},{"city":"Jaguaruana","employee":46,"state":null},{"city":"Neepawa","employee":70,"state":"Manitoba"},{"city":"Pandanwangi","employee":85,"state":null},{"city":"Jhingergācha","employee":92,"state":null}]},
{"id":47,"name":"Meejo","revenue":25923598,"headquarter":{"lat":5.4827405,"lot":-73.4062342},"location":[{"city":"Checacupe","employee":38,"state":null},{"city":"Bhokadoke","employee":65,"state":null},{"city":"Guancangping","employee":68,"state":null},{"city":"Arnhem","employee":26,"state":"Provincie Gelderland"},{"city":"Bhāndāria","employee":70,"state":null}]},
{"id":48,"name":"Skidoo","revenue":95596864,"headquarter":{"lat":46.0759677,"lot":18.2320497},"location":[{"city":"Zhinvali","employee":21,"state":null},{"city":"Velikiy Ustyug","employee":91,"state":null},{"city":"Casalinho","employee":71,"state":"Leiria"},{"city":"Yidu","employee":93,"state":null}]},
{"id":49,"name":"Riffpedia","revenue":71597043,"headquarter":{"lat":-20.4827446,"lot":-55.8108596},"location":[{"city":"Coromandel","employee":34,"state":null}]},
{"id":50,"name":"Quinu","revenue":75282835,"headquarter":{"lat":36.284107,"lot":100.620031},"location":[{"city":"Shangma","employee":70,"state":null},{"city":"Huang’ao","employee":29,"state":null},{"city":"Smederevo","employee":35,"state":null}]},
{"id":51,"name":"Jatri","revenue":94515230,"headquarter":{"lat":-8.3743231,"lot":124.7630307},"location":[{"city":"Jiubao","employee":48,"state":null},{"city":"Baoping","employee":16,"state":null},{"city":"Biała","employee":94,"state":null},{"city":"Fenais da Luz","employee":37,"state":"Ilha de São Miguel"},{"city":"Cidima","employee":42,"state":null}]},
{"id":52,"name":"Nlounge","revenue":55103136,"headquarter":{"lat":18.0193171,"lot":-76.9758274},"location":[{"city":"Bardīyah","employee":46,"state":null},{"city":"Guatimozín","employee":14,"state":null},{"city":"Jiuzhai","employee":3,"state":null},{"city":"Al Ghuwayrīyah","employee":47,"state":null}]},
{"id":53,"name":"Browsedrive","revenue":94563551,"headquarter":{"lat":12.2387911,"lot":109.1967488},"location":[{"city":"Chiţcani","employee":73,"state":null},{"city":"Tasīl","employee":84,"state":null},{"city":"Tiemen","employee":88,"state":null},{"city":"Shangdian","employee":16,"state":null},{"city":"Nanyuki","employee":92,"state":null}]},
{"id":54,"name":"Eadel","revenue":71976539,"headquarter":{"lat":1.3118981,"lot":32.463708},"location":[{"city":"Banjar Pekandelan","employee":5,"state":null},{"city":"Ganzi","employee":94,"state":null},{"city":"Shebekino","employee":33,"state":null},{"city":"Bombarral","employee":80,"state":"Leiria"},{"city":"Pryyutivka","employee":97,"state":null}]},
{"id":55,"name":"Riffpedia","revenue":67515538,"headquarter":{"lat":39.1251493,"lot":23.6799766},"location":[{"city":"Tha Yang","employee":12,"state":null}]},
{"id":56,"name":"Jamia","revenue":57675695,"headquarter":{"lat":52.1837429,"lot":34.0412051},"location":[{"city":"Varāmīn","employee":90,"state":null}]},
{"id":57,"name":"Skilith","revenue":76748131,"headquarter":{"lat":39.4158155,"lot":-7.4562886},"location":[{"city":"Washington","employee":3,"state":"District of Columbia"}]},
{"id":58,"name":"Demimbu","revenue":7954207,"headquarter":{"lat":40.6294406,"lot":22.0688549},"location":[{"city":"Negeriagung","employee":73,"state":null},{"city":"Nanpu","employee":4,"state":null},{"city":"Maglaj","employee":7,"state":null},{"city":"Muldersdriseloop","employee":96,"state":null}]},
{"id":59,"name":"Tavu","revenue":76978229,"headquarter":{"lat":-38.2326538,"lot":-72.3515084},"location":[{"city":"Chaloem Phra Kiat","employee":64,"state":null},{"city":"Bagé","employee":22,"state":null},{"city":"Anaráchi","employee":32,"state":null},{"city":"Xiyang","employee":53,"state":null},{"city":"Sarimukti Kaler","employee":93,"state":null}]},
{"id":60,"name":"Ainyx","revenue":6017252,"headquarter":{"lat":50.4823057,"lot":14.9414959},"location":[{"city":"Gweedore","employee":56,"state":null},{"city":"Duping","employee":30,"state":null},{"city":"Shiwan","employee":69,"state":null},{"city":"Binkolo","employee":2,"state":null},{"city":"Tagasilay","employee":43,"state":null}]},
{"id":61,"name":"Kwilith","revenue":82881260,"headquarter":{"lat":49.8807,"lot":115.72526},"location":[{"city":"Sampit","employee":57,"state":null},{"city":"Chang’an","employee":52,"state":null}]},
{"id":62,"name":"Linktype","revenue":43614480,"headquarter":{"lat":13.204053,"lot":108.2080973},"location":[{"city":"Baghlān","employee":51,"state":null},{"city":"Nzega","employee":35,"state":null},{"city":"Padasuka","employee":37,"state":null}]},
{"id":63,"name":"Jazzy","revenue":95770944,"headquarter":{"lat":32.030339,"lot":34.8870985},"location":[{"city":"Fuhai","employee":67,"state":null},{"city":"Xiang Ngeun","employee":45,"state":null},{"city":"Shtip","employee":46,"state":null},{"city":"Jiblah","employee":28,"state":null},{"city":"Pontarlier","employee":61,"state":"Franche-Comté"}]},
{"id":64,"name":"Leenti","revenue":53725930,"headquarter":{"lat":40.5544993,"lot":-7.9843201},"location":[]},
{"id":65,"name":"Mydeo","revenue":5417785,"headquarter":{"lat":-15.5030873,"lot":-73.4797036},"location":[{"city":"Dengzishan","employee":83,"state":null},{"city":"Ishikawa","employee":75,"state":null},{"city":"Concepción","employee":33,"state":null},{"city":"Snizhne","employee":31,"state":null}]},
{"id":66,"name":"Gigaclub","revenue":51761812,"headquarter":{"lat":52.0882644,"lot":21.1565786},"location":[{"city":"Limoges","employee":63,"state":"Limousin"},{"city":"Katima Mulilo","employee":77,"state":null},{"city":"Stockholm","employee":31,"state":"Stockholm"},{"city":"Krahës","employee":98,"state":null},{"city":"Casalinho","employee":82,"state":"Leiria"}]},
{"id":67,"name":"Gabcube","revenue":98383803,"headquarter":{"lat":42.0160888,"lot":24.8652145},"location":[]},
{"id":68,"name":"Twimm","revenue":63504671,"headquarter":{"lat":13.3406743,"lot":-86.6220546},"location":[]},
{"id":69,"name":"Voolith","revenue":85203531,"headquarter":{"lat":25.948109,"lot":118.589396},"location":[]},
{"id":70,"name":"Podcat","revenue":37125901,"headquarter":{"lat":-22.8209029,"lot":-47.2732726},"location":[{"city":"Cihe","employee":86,"state":null}]},
{"id":71,"name":"Brightdog","revenue":28846355,"headquarter":{"lat":51.6406279,"lot":15.0625181},"location":[]},
{"id":72,"name":"Quatz","revenue":52693797,"headquarter":{"lat":4.517444,"lot":-74.790311},"location":[{"city":"Merklín","employee":97,"state":null},{"city":"Saihan Tal","employee":42,"state":null},{"city":"Espinillo","employee":77,"state":null}]},
{"id":73,"name":"Mydo","revenue":7391592,"headquarter":{"lat":12.0683397,"lot":99.8459774},"location":[{"city":"Beopwon","employee":99,"state":null},{"city":"Mosfilotí","employee":89,"state":null},{"city":"Głuchów","employee":12,"state":null},{"city":"Llusco","employee":71,"state":null}]},
{"id":74,"name":"Voonte","revenue":27008758,"headquarter":{"lat":3.1121428,"lot":101.6935065},"location":[{"city":"Shanshu","employee":53,"state":null},{"city":"Cill Airne","employee":13,"state":null},{"city":"Hengqiao","employee":21,"state":null},{"city":"Xinye","employee":74,"state":null}]},
{"id":75,"name":"Yombu","revenue":33687525,"headquarter":{"lat":-23.4157731,"lot":-51.4264048},"location":[{"city":"Santa Lucía","employee":87,"state":null},{"city":"Trzciana","employee":71,"state":null},{"city":"Uherský Ostroh","employee":8,"state":null},{"city":"Sanli","employee":21,"state":null},{"city":"Putrajaya","employee":61,"state":"Putrajaya"}]},
{"id":76,"name":"Voolia","revenue":16548240,"headquarter":{"lat":-7.1477523,"lot":109.9854145},"location":[{"city":"Wassu","employee":69,"state":null}]},
{"id":77,"name":"Talane","revenue":7805988,"headquarter":{"lat":23.797309,"lot":115.445538},"location":[{"city":"Seixezelo","employee":51,"state":"Porto"},{"city":"Vredendal","employee":91,"state":null},{"city":"Fenghuo","employee":69,"state":null},{"city":"Norrköping","employee":97,"state":"Östergötland"},{"city":"Minh Long","employee":20,"state":null}]},
{"id":78,"name":"Avaveo","revenue":92154126,"headquarter":{"lat":14.6611789,"lot":121.0226827},"location":[{"city":"Lyon","employee":95,"state":"Rhône-Alpes"},{"city":"Rybnoye","employee":44,"state":null},{"city":"Não Me Toque","employee":91,"state":null}]},
{"id":79,"name":"Dynabox","revenue":46257918,"headquarter":{"lat":2.7798518,"lot":33.0057261},"location":[{"city":"Nong Bua Daeng","employee":100,"state":null},{"city":"Padina","employee":100,"state":null},{"city":"Embalse","employee":76,"state":null},{"city":"Nancang","employee":59,"state":null}]},
{"id":80,"name":"Realbridge","revenue":90474458,"headquarter":{"lat":36.9594997,"lot":46.1053782},"location":[{"city":"Nice","employee":43,"state":"Provence-Alpes-Côte d'Azur"},{"city":"Yorii","employee":97,"state":null}]},
{"id":81,"name":"Oodoo","revenue":30636386,"headquarter":{"lat":40.0877962,"lot":49.4030218},"location":[{"city":"Oranmore","employee":86,"state":null}]},
{"id":82,"name":"Edgeblab","revenue":28441987,"headquarter":{"lat":51.0248584,"lot":22.8537385},"location":[{"city":"Oeri’u","employee":27,"state":null},{"city":"Eci","employee":90,"state":null},{"city":"Santo Domingo","employee":81,"state":null}]},
{"id":83,"name":"Photojam","revenue":66241923,"headquarter":{"lat":55.5945618,"lot":26.4507193},"location":[{"city":"Pantai","employee":84,"state":null}]},
{"id":84,"name":"Skyndu","revenue":94172257,"headquarter":{"lat":-6.6727682,"lot":106.3257768},"location":[{"city":"Koronadal","employee":64,"state":null}]},
{"id":85,"name":"Fiveclub","revenue":88873750,"headquarter":{"lat":29.275625,"lot":110.790339},"location":[{"city":"Sangallaya","employee":61,"state":null},{"city":"Zhili","employee":58,"state":null},{"city":"Bokhan","employee":14,"state":null}]},
{"id":86,"name":"Voolith","revenue":24591156,"headquarter":{"lat":36.0941745,"lot":28.0162191},"location":[]},
{"id":87,"name":"Youspan","revenue":26278237,"headquarter":{"lat":15.0410586,"lot":120.0745042},"location":[{"city":"Khuzdār","employee":31,"state":null},{"city":"Göteborg","employee":27,"state":"Västra Götaland"},{"city":"Alençon","employee":32,"state":"Basse-Normandie"},{"city":"Sujiatuo","employee":42,"state":null}]},
{"id":88,"name":"Tagtune","revenue":80489566,"headquarter":{"lat":56.6566914,"lot":16.5063562},"location":[]},
{"id":89,"name":"Dynava","revenue":22634503,"headquarter":{"lat":39.4305733,"lot":21.6627892},"location":[{"city":"Hartswater","employee":15,"state":null},{"city":"Ipojuca","employee":76,"state":null}]},
{"id":90,"name":"Yodel","revenue":7333747,"headquarter":{"lat":50.3955793,"lot":18.6346378},"location":[{"city":"Czerniewice","employee":96,"state":null},{"city":"Las Mercedes","employee":58,"state":null},{"city":"Itapissuma","employee":57,"state":null},{"city":"Haysyn","employee":56,"state":null}]},
{"id":91,"name":"Browsedrive","revenue":99148090,"headquarter":{"lat":15.3097361,"lot":120.8940375},"location":[{"city":"Narita","employee":2,"state":null},{"city":"Taoxi","employee":21,"state":null}]},
{"id":92,"name":"Topicshots","revenue":18576691,"headquarter":{"lat":43.4968733,"lot":-1.4703339},"location":[{"city":"Kachar","employee":74,"state":null}]},
{"id":93,"name":"Eare","revenue":3855422,"headquarter":{"lat":55.0764307,"lot":98.8426483},"location":[{"city":"Valle de Guanape","employee":43,"state":null},{"city":"Kurchatov","employee":76,"state":null},{"city":"Tilamuta","employee":79,"state":null}]},
{"id":94,"name":"Twitterbridge","revenue":33720161,"headquarter":{"lat":-6.4712737,"lot":110.8171082},"location":[{"city":"Barrio San Luis","employee":81,"state":null},{"city":"Salon-de-Provence","employee":68,"state":"Provence-Alpes-Côte d'Azur"}]},
{"id":95,"name":"Viva","revenue":22391943,"headquarter":{"lat":54.7767925,"lot":56.0399438},"location":[{"city":"Ban Na","employee":73,"state":null},{"city":"Aranos","employee":31,"state":null}]},
{"id":96,"name":"Wikido","revenue":75748133,"headquarter":{"lat":57.9168381,"lot":13.8752069},"location":[{"city":"Plewiska","employee":51,"state":null},{"city":"La Curva","employee":14,"state":null},{"city":"Manalu","employee":3,"state":null}]},
{"id":97,"name":"Quimm","revenue":57599821,"headquarter":{"lat":15.8785099,"lot":120.3186429},"location":[{"city":"Wuyang","employee":2,"state":null}]},
{"id":98,"name":"Skinix","revenue":78644932,"headquarter":{"lat":48.1079676,"lot":-1.5212701},"location":[{"city":"Lyon","employee":14,"state":"Rhône-Alpes"},{"city":"Fais","employee":39,"state":null},{"city":"Brodarica","employee":99,"state":null},{"city":"Isla","employee":95,"state":null},{"city":"Gunjur Kuta","employee":27,"state":null}]},
{"id":99,"name":"Dazzlesphere","revenue":43105301,"headquarter":{"lat":40.8428562,"lot":43.7557983},"location":[{"city":"Horní Suchá","employee":42,"state":null},{"city":"Kurbnesh","employee":18,"state":null},{"city":"Kyzyl-Kyya","employee":62,"state":null},{"city":"Hebi","employee":81,"state":null}]},
{"id":100,"name":"Realbridge","revenue":29382388,"headquarter":{"lat":38.3884463,"lot":-8.1572713},"location":[]}]